[
  {
    "name": "Rahul Sharma",
    "service": "Plumbing",
    "address": "Alpha 1, Greater Noida, UP, India",
    "contact": "9876543210",
    "available": true,
    "location": {
      "lat": 28.4745,
      "lng": 77.5035
    }
  },
  {
    "name": "Ankit Verma",
    "service": "Plumbing",
    "address": "Alpha 2, Greater Noida, UP, India",
    "contact": "9876543211",
    "available": true,
    "location": {
      "lat": 28.4760,
      "lng": 77.5100
    }
  },
  {
    "name": "Vikram Singh",
    "service": "Plumbing",
    "address": "Beta 1, Greater Noida, UP, India",
    "contact": "9876543212",
    "available": true,
    "location": {
      "lat": 28.4800,
      "lng": 77.5200
    }
  },
  {
    "name": "Priya Sharma",
    "service": "Tutoring",
    "address": "Knowledge Park 2, Greater Noida, UP, India",
    "contact": "9876543220",
    "available": true,
    "location": {
      "lat": 28.4860,
      "lng": 77.5130
    }
  },
  {
    "name": "Neha Kapoor",
    "service": "Tutoring",
    "address": "Knowledge Park 3, Greater Noida, UP, India",
    "contact": "9876543221",
    "available": true,
    "location": {
      "lat": 28.4900,
      "lng": 77.5180
    }
  },
  {
    "name": "Rohit Jain",
    "service": "Tutoring",
    "address": "Gamma 1, Greater Noida, UP, India",
    "contact": "9876543222",
    "available": true,
    "location": {
      "lat": 28.4950,
      "lng": 77.5250
    }
  },
  {
    "name": "Arjun Yadav",
    "service": "Delivery",
    "address": "Gamma 2, Greater Noida, UP, India",
    "contact": "9876543230",
    "available": true,
    "location": {
      "lat": 28.4980,
      "lng": 77.5300
    }
  },
  {
    "name": "Deepak Kumar",
    "service": "Delivery",
    "address": "Sector 18, Greater Noida, UP, India",
    "contact": "9876543231",
    "available": true,
    "location": {
      "lat": 28.5000,
      "lng": 77.5350
    }
  },
  {
    "name": "Karan Mehta",
    "service": "Delivery",
    "address": "Sector 51, Greater Noida, UP, India",
    "contact": "9876543232",
    "available": true,
    "location": {
      "lat": 28.5020,
      "lng": 77.5400
    }
  },
  {
    "name": "Suresh Rao",
    "service": "Electrician",
    "address": "Sector 52, Greater Noida, UP, India",
    "contact": "9876543240",
    "available": true,
    "location": {
      "lat": 28.5050,
      "lng": 77.5450
    }
  },
  {
    "name": "Mohit Gupta",
    "service": "Electrician",
    "address": "Alpha 1, Greater Noida, UP, India",
    "contact": "9876543241",
    "available": true,
    "location": {
      "lat": 28.4745,
      "lng": 77.5035
    }
  },
  {
    "name": "Ajay Singh",
    "service": "Electrician",
    "address": "Beta 2, Greater Noida, UP, India",
    "contact": "9876543242",
    "available": true,
    "location": {
      "lat": 28.4820,
      "lng": 77.5250
    }
  },
  {
    "name": "Akash Verma",
    "service": "Coding Help",
    "address": "Knowledge Park 2, Greater Noida, UP, India",
    "contact": "9876543250",
    "available": true,
    "location": {
      "lat": 28.4860,
      "lng": 77.5130
    }
  },
  {
    "name": "Rahul Jain",
    "service": "Coding Help",
    "address": "Knowledge Park 3, Greater Noida, UP, India",
    "contact": "9876543251",
    "available": true,
    "location": {
      "lat": 28.4900,
      "lng": 77.5180
    }
  },
  {
    "name": "Manish Sharma",
    "service": "Coding Help",
    "address": "Gamma 1, Greater Noida, UP, India",
    "contact": "9876543252",
    "available": true,
    "location": {
      "lat": 28.4950,
      "lng": 77.5250
    }
  },
  {
    "name": "Anil Kumar",
    "service": "Painting",
    "address": "Gamma 2, Greater Noida, UP, India",
    "contact": "9876543260",
    "available": true,
    "location": {
      "lat": 28.4980,
      "lng": 77.5300
    }
  },
  {
    "name": "Rakesh Singh",
    "service": "Painting",
    "address": "Sector 18, Greater Noida, UP, India",
    "contact": "9876543261",
    "available": true,
    "location": {
      "lat": 28.5000,
      "lng": 77.5350
    }
  },
  {
    "name": "Sunil Verma",
    "service": "Painting",
    "address": "Sector 51, Greater Noida, UP, India",
    "contact": "9876543262",
    "available": true,
    "location": {
      "lat": 28.5020,
      "lng": 77.5400
    }
  },
  {
    "name": "Rohit Sharma",
    "service": "Fitness Trainer",
    "address": "Sector 52, Greater Noida, UP, India",
    "contact": "9876543270",
    "available": true,
    "location": {
      "lat": 28.5050,
      "lng": 77.5450
    }
  },
  {
    "name": "Amit Kapoor",
    "service": "Fitness Trainer",
    "address": "Alpha 2, Greater Noida, UP, India",
    "contact": "9876543271",
    "available": true,
    "location": {
      "lat": 28.4760,
      "lng": 77.5100
    }
  },
  {
    "name": "Sandeep Mehta",
    "service": "Fitness Trainer",
    "address": "Beta 1, Greater Noida, UP, India",
    "contact": "9876543272",
    "available": true,
    "location": {
      "lat": 28.4800,
      "lng": 77.5200
    }
  },
  {
    "name": "Vikash Yadav",
    "service": "Cleaning",
    "address": "Knowledge Park 2, Greater Noida, UP, India",
    "contact": "9876543280",
    "available": true,
    "location": {
      "lat": 28.4860,
      "lng": 77.5130
    }
  },
  {
    "name": "Ramesh Kumar",
    "service": "Cleaning",
    "address": "Knowledge Park 3, Greater Noida, UP, India",
    "contact": "9876543281",
    "available": true,
    "location": {
      "lat": 28.4900,
      "lng": 77.5180
    }
  },
  {
    "name": "Satyam Sharma",
    "service": "Cleaning",
    "address": "Gamma 1, Greater Noida, UP, India",
    "contact": "9876543282",
    "available": true,
    "location": {
      "lat": 28.4950,
      "lng": 77.5250
    }
  },
  {
    "name": "Rahul Yadav",
    "service": "Car Services",
    "address": "Gamma 2, Greater Noida, UP, India",
    "contact": "9876543290",
    "available": true,
    "location": {
      "lat": 28.4980,
      "lng": 77.5300
    }
  },
  {
    "name": "Ajay Kumar",
    "service": "Car Services",
    "address": "Sector 18, Greater Noida, UP, India",
    "contact": "9876543291",
    "available": true,
    "location": {
      "lat": 28.5000,
      "lng": 77.5350
    }
  },
  {
    "name": "Manoj Sharma",
    "service": "Car Services",
    "address": "Sector 51, Greater Noida, UP, India",
    "contact": "9876543292",
    "available": true,
    "location": {
      "lat": 28.5020,
      "lng": 77.5400
    }
  },
  {
    "name": "Pooja Singh",
    "service": "Babysitting",
    "address": "Sector 52, Greater Noida, UP, India",
    "contact": "9876543300",
    "available": true,
    "location": {
      "lat": 28.5050,
      "lng": 77.5450
    }
  },
  {
    "name": "Neha Sharma",
    "service": "Babysitting",
    "address": "Alpha 1, Greater Noida, UP, India",
    "contact": "9876543301",
    "available": true,
    "location": {
      "lat": 28.4745,
      "lng": 77.5035
    }
  },
  {
    "name": "Ritu Verma",
    "service": "Babysitting",
    "address": "Beta 2, Greater Noida, UP, India",
    "contact": "9876543302",
    "available": true,
    "location": {
      "lat": 28.4820,
      "lng": 77.5250
    }
  },
  {
    "name": "Alok Singh",
    "service": "Cooking",
    "address": "Knowledge Park 2, Greater Noida, UP, India",
    "contact": "9876543310",
    "available": true,
    "location": {
      "lat": 28.4860,
      "lng": 77.5130
    }
  },
  {
    "name": "Amit Sharma",
    "service": "Cooking",
    "address": "Knowledge Park 3, Greater Noida, UP, India",
    "contact": "9876543311",
    "available": true,
    "location": {
      "lat": 28.4900,
      "lng": 77.5180
    }
  },
  {
    "name": "Suman Verma",
    "service": "Cooking",
    "address": "Gamma 1, Greater Noida, UP, India",
    "contact": "9876543312",
    "available": true,
    "location": {
      "lat": 28.4950,
      "lng": 77.5250
    }
  },
  {
    "name": "Deepak Yadav",
    "service": "Pet Care",
    "address": "Gamma 2, Greater Noida, UP, India",
    "contact": "9876543320",
    "available": true,
    "location": {
      "lat": 28.4980,
      "lng": 77.5300
    }
  },
  {
    "name": "Rohit Verma",
    "service": "Pet Care",
    "address": "Sector 18, Greater Noida, UP, India",
    "contact": "9876543321",
    "available": true,
    "location": {
      "lat": 28.5000,
      "lng": 77.5350
    }
  },
  {
    "name": "Vikram Sharma",
    "service": "Pet Care",
    "address": "Sector 51, Greater Noida, UP, India",
    "contact": "9876543322",
    "available": true,
    "location": {
      "lat": 28.5020,
      "lng": 77.5400
    }
  },
  {
    "name": "Rakesh Yadav",
    "service": "Gardening",
    "address": "Sector 52, Greater Noida, UP, India",
    "contact": "9876543330",
    "available": true,
    "location": {
      "lat": 28.5050,
      "lng": 77.5450
    }
  },
  {
    "name": "Ajay Sharma",
    "service": "Gardening",
    "address": "Alpha 2, Greater Noida, UP, India",
    "contact": "9876543331",
    "available": true,
    "location": {
      "lat": 28.4760,
      "lng": 77.5100
    }
  },
  {
    "name": "Sanjay Verma",
    "service": "Gardening",
    "address": "Beta 1, Greater Noida, UP, India",
    "contact": "9876543332",
    "available": true,
    "location": {
      "lat": 28.4800,
      "lng": 77.5200
    }
  },
  {
    "name": "Anil Yadav",
    "service": "Event Assistance",
    "address": "Knowledge Park 2, Greater Noida, UP, India",
    "contact": "9876543340",
    "available": true,
    "location": {
      "lat": 28.4860,
      "lng": 77.5130
    }
  },
  {
    "name": "Vikram Kapoor",
    "service": "Event Assistance",
    "address": "Knowledge Park 3, Greater Noida, UP, India",
    "contact": "9876543341",
    "available": true,
    "location": {
      "lat": 28.4900,
      "lng": 77.5180
    }
  },
  {
    "name": "Rohit Mehta",
    "service": "Event Assistance",
    "address": "Gamma 1, Greater Noida, UP, India",
    "contact": "9876543342",
    "available": true,
    "location": {
      "lat": 28.4950,
      "lng": 77.5250
    }
  }
]